timestamp,date,latitude,longitude
1565658929,"2019-08-13 01:15:29",38.864823,-77.072038
1565663560,"2019-08-13 02:32:40",38.864823,-77.072038
1565665431,"2019-08-13 03:03:51",38.864826,-77.072042
1565665457,"2019-08-13 03:04:17",38.86425,-77.071952
1565665462,"2019-08-13 03:04:22",38.864737,-77.072033
1565667148,"2019-08-13 03:32:28",38.865158,-77.07224
1565667156,"2019-08-13 03:32:36",38.864864,-77.072049
1565672663,"2019-08-13 05:04:23",38.865206,-77.072001
1565672696,"2019-08-13 05:04:56",38.864822,-77.072038
1565672729,"2019-08-13 05:05:29",38.864822,-77.072038
1565674973,"2019-08-13 05:42:53",38.864822,-77.072038
1565679319,"2019-08-13 06:55:19",38.864822,-77.072038
1565679342,"2019-08-13 06:55:42",38.864822,-77.072038
1565683711,"2019-08-13 08:08:31",38.864822,-77.072038
1565686697,"2019-08-13 08:58:17",38.864822,-77.072038
1565686999,"2019-08-13 09:03:19",38.864819,-77.072046
1565687209,"2019-08-13 09:06:49",38.864819,-77.072046
1565687553,"2019-08-13 09:12:33",38.864823,-77.072042
1565687888,"2019-08-13 09:18:08",38.864823,-77.072042
1565688222,"2019-08-13 09:23:42",38.864823,-77.072042
1565688528,"2019-08-13 09:28:48",38.86482,-77.072046
1565688828,"2019-08-13 09:33:48",38.86482,-77.072046
1565689129,"2019-08-13 09:38:49",38.86482,-77.072046
1565689430,"2019-08-13 09:43:50",38.86482,-77.072046
1565689731,"2019-08-13 09:48:51",38.86482,-77.072046
1565690036,"2019-08-13 09:53:56",38.864822,-77.072038
1565690345,"2019-08-13 09:59:05",38.864822,-77.072038
1565690564,"2019-08-13 10:02:44",38.864822,-77.072038
1565690962,"2019-08-13 10:09:22",38.86482,-77.072046
1565691322,"2019-08-13 10:15:22",38.864822,-77.072038
1565691683,"2019-08-13 10:21:23",38.864822,-77.072038
1565692044,"2019-08-13 10:27:24",38.864822,-77.072038
1565692189,"2019-08-13 10:29:49",38.86449,-77.071738
1565692590,"2019-08-13 10:36:30",38.864501,-77.071766
1565692951,"2019-08-13 10:42:31",38.864501,-77.071766
1565693028,"2019-08-13 10:43:48",38.864822,-77.072038
1565693282,"2019-08-13 10:48:02",38.864822,-77.072038
1565693603,"2019-08-13 10:53:23",38.864822,-77.072038
1565693770,"2019-08-13 10:56:10",38.865164,-77.072839
1565693777,"2019-08-13 10:56:17",38.864869,-77.07216
1565693929,"2019-08-13 10:58:49",38.864618,-77.072457
1565693993,"2019-08-13 10:59:53",38.864932,-77.071865
1565693998,"2019-08-13 10:59:58",38.864932,-77.071865
1565694047,"2019-08-13 11:00:47",38.865036,-77.072316
1565694093,"2019-08-13 11:01:33",38.864819,-77.072046
1565695574,"2019-08-13 11:26:14",38.864717,-77.071472
1565695634,"2019-08-13 11:27:14",38.86436,-77.071922
1565695685,"2019-08-13 11:28:05",38.864822,-77.072038
1565698075,"2019-08-13 12:07:55",38.864822,-77.072038
1565698460,"2019-08-13 12:14:20",38.864822,-77.072038
1565698841,"2019-08-13 12:20:41",38.864822,-77.072038
1565698975,"2019-08-13 12:22:55",38.864822,-77.072038
1565699433,"2019-08-13 12:30:33",38.864822,-77.072038
1565699741,"2019-08-13 12:35:41",38.864822,-77.072038
1565699875,"2019-08-13 12:37:55",38.864822,-77.072038
1565699892,"2019-08-13 12:38:12",38.864513,-77.072302
1565700082,"2019-08-13 12:41:22",38.864822,-77.072038
1565700194,"2019-08-13 12:43:14",38.864822,-77.072038
1565700641,"2019-08-13 12:50:41",38.864822,-77.072038
1565701852,"2019-08-13 13:10:52",38.864823,-77.07205
1565704190,"2019-08-13 13:49:50",38.864818,-77.072034
1565706640,"2019-08-13 14:30:40",38.865134,-77.071844
1565707684,"2019-08-13 14:48:04",38.865351,-77.071463
1565707740,"2019-08-13 14:49:00",38.86452,-77.07177
1565707789,"2019-08-13 14:49:49",38.864823,-77.072038
1565708112,"2019-08-13 14:55:12",38.865061,-77.07251
1565708167,"2019-08-13 14:56:07",38.864823,-77.072039
1565708551,"2019-08-13 15:02:31",38.864937,-77.072407
1565708845,"2019-08-13 15:07:25",38.864282,-77.072356
1565708872,"2019-08-13 15:07:52",38.864344,-77.073425
1565708902,"2019-08-13 15:08:22",38.865814,-77.074614
1565708965,"2019-08-13 15:09:25",38.865142,-77.070428
1565708996,"2019-08-13 15:09:56",38.86653,-77.063822
1565709024,"2019-08-13 15:10:24",38.865563,-77.058406
1565709055,"2019-08-13 15:10:55",38.863314,-77.059048
1565709085,"2019-08-13 15:11:25",38.863243,-77.059512
1565709115,"2019-08-13 15:11:55",38.861642,-77.059928
1565709124,"2019-08-13 15:12:04",38.860975,-77.059952
1565709158,"2019-08-13 15:12:38",38.860271,-77.058781
1565709174,"2019-08-13 15:12:54",38.860677,-77.058092
1565709192,"2019-08-13 15:13:12",38.861306,-77.057346
1565709205,"2019-08-13 15:13:25",38.860676,-77.057401
1565709223,"2019-08-13 15:13:43",38.859615,-77.056235
1565709264,"2019-08-13 15:14:24",38.860654,-77.057422
1565709286,"2019-08-13 15:14:46",38.860495,-77.057712
1565710659,"2019-08-13 15:37:39",38.860495,-77.057712
1565710859,"2019-08-13 15:40:59",38.860087,-77.057086
1565710890,"2019-08-13 15:41:30",38.859872,-77.056859
1565710898,"2019-08-13 15:41:38",38.859846,-77.056472
1565710904,"2019-08-13 15:41:44",38.860153,-77.056411
1565710910,"2019-08-13 15:41:50",38.860453,-77.056463
1565710921,"2019-08-13 15:42:01",38.860509,-77.056824
1565710945,"2019-08-13 15:42:25",38.860682,-77.056558
1565710966,"2019-08-13 15:42:46",38.860933,-77.056315
1565710972,"2019-08-13 15:42:52",38.861371,-77.056378
1565710977,"2019-08-13 15:42:57",38.861718,-77.056484
1565710982,"2019-08-13 15:43:02",38.862169,-77.056566
1565710988,"2019-08-13 15:43:08",38.862683,-77.056725
1565710993,"2019-08-13 15:43:13",38.863137,-77.056846
1565710999,"2019-08-13 15:43:19",38.863767,-77.056957
1565711004,"2019-08-13 15:43:24",38.864218,-77.056896
1565711009,"2019-08-13 15:43:29",38.864504,-77.056872
1565711015,"2019-08-13 15:43:35",38.864867,-77.056695
1565711021,"2019-08-13 15:43:41",38.86522,-77.056763
1565711026,"2019-08-13 15:43:46",38.865332,-77.057368
1565711032,"2019-08-13 15:43:52",38.865417,-77.057901
1565711038,"2019-08-13 15:43:58",38.865631,-77.058248
1565711044,"2019-08-13 15:44:04",38.866246,-77.058302
1565711050,"2019-08-13 15:44:10",38.866955,-77.058456
1565711056,"2019-08-13 15:44:16",38.867457,-77.059383
1565711061,"2019-08-13 15:44:21",38.867725,-77.060312
1565711067,"2019-08-13 15:44:27",38.867959,-77.061618
1565711073,"2019-08-13 15:44:33",38.868069,-77.062889
1565711079,"2019-08-13 15:44:39",38.867674,-77.064128
1565711085,"2019-08-13 15:44:45",38.867076,-77.065268
1565711090,"2019-08-13 15:44:50",38.866662,-77.066266
1565711096,"2019-08-13 15:44:56",38.866135,-77.0675
1565711102,"2019-08-13 15:45:02",38.865723,-77.068812
1565711108,"2019-08-13 15:45:08",38.865517,-77.070099
1565711113,"2019-08-13 15:45:13",38.865561,-77.07116
1565711119,"2019-08-13 15:45:19",38.865756,-77.072333
1565711125,"2019-08-13 15:45:25",38.866077,-77.073406
1565711130,"2019-08-13 15:45:30",38.866463,-77.074323
1565711136,"2019-08-13 15:45:36",38.867108,-77.075548
1565711142,"2019-08-13 15:45:42",38.867867,-77.076717
1565711147,"2019-08-13 15:45:47",38.868525,-77.077592
1565711153,"2019-08-13 15:45:53",38.869252,-77.078456
1565711158,"2019-08-13 15:45:58",38.869911,-77.079084
1565711164,"2019-08-13 15:46:04",38.870662,-77.079801
1565711169,"2019-08-13 15:46:09",38.871365,-77.08036
1565711175,"2019-08-13 15:46:15",38.872225,-77.080945
1565711181,"2019-08-13 15:46:21",38.872848,-77.081375
1565711187,"2019-08-13 15:46:27",38.873446,-77.081772
1565711193,"2019-08-13 15:46:33",38.87418,-77.082271
1565711199,"2019-08-13 15:46:39",38.874886,-77.08301
1565711205,"2019-08-13 15:46:45",38.875489,-77.083819
1565711210,"2019-08-13 15:46:50",38.875925,-77.084351
1565711216,"2019-08-13 15:46:56",38.876503,-77.084427
1565711222,"2019-08-13 15:47:02",38.876735,-77.083855
1565711227,"2019-08-13 15:47:07",38.876576,-77.083549
1565711239,"2019-08-13 15:47:19",38.876282,-77.083486
1565711244,"2019-08-13 15:47:24",38.875721,-77.083633
1565711250,"2019-08-13 15:47:30",38.875021,-77.084307
1565711256,"2019-08-13 15:47:36",38.874599,-77.085415
1565711262,"2019-08-13 15:47:42",38.874418,-77.086227
1565711267,"2019-08-13 15:47:47",38.874047,-77.087487
1565711273,"2019-08-13 15:47:53",38.873868,-77.088224
1565711294,"2019-08-13 15:48:14",38.87384,-77.08859
1565711300,"2019-08-13 15:48:20",38.873731,-77.089075
1565711305,"2019-08-13 15:48:25",38.873454,-77.089706
1565711311,"2019-08-13 15:48:31",38.873266,-77.090542
1565711316,"2019-08-13 15:48:36",38.873052,-77.091352
1565711322,"2019-08-13 15:48:42",38.872786,-77.09244
1565711327,"2019-08-13 15:48:47",38.872529,-77.093431
1565711333,"2019-08-13 15:48:53",38.872249,-77.094556
1565711338,"2019-08-13 15:48:58",38.87204,-77.095527
1565711344,"2019-08-13 15:49:04",38.871721,-77.096717
1565711349,"2019-08-13 15:49:09",38.871474,-77.097752
1565711355,"2019-08-13 15:49:15",38.871167,-77.098981
1565711360,"2019-08-13 15:49:20",38.870861,-77.100129
1565711366,"2019-08-13 15:49:26",38.870537,-77.101458
1565711372,"2019-08-13 15:49:32",38.870282,-77.102564
1565711378,"2019-08-13 15:49:38",38.870066,-77.103492
1565711384,"2019-08-13 15:49:44",38.8698,-77.104403
1565711390,"2019-08-13 15:49:50",38.869595,-77.10531
1565711395,"2019-08-13 15:49:55",38.869354,-77.106293
1565711401,"2019-08-13 15:50:01",38.869026,-77.107658
1565711407,"2019-08-13 15:50:07",38.868708,-77.108839
1565711412,"2019-08-13 15:50:12",38.868466,-77.109753
1565711417,"2019-08-13 15:50:17",38.868222,-77.110665
1565711423,"2019-08-13 15:50:23",38.868019,-77.111468
1565711440,"2019-08-13 15:50:40",38.867919,-77.111892
1565711445,"2019-08-13 15:50:45",38.867742,-77.112585
1565711450,"2019-08-13 15:50:50",38.867567,-77.113378
1565711456,"2019-08-13 15:50:56",38.867325,-77.114449
1565711461,"2019-08-13 15:51:01",38.867125,-77.11529
1565711466,"2019-08-13 15:51:06",38.86703,-77.115655
1565711493,"2019-08-13 15:51:33",38.866977,-77.116015
1565711499,"2019-08-13 15:51:39",38.866903,-77.116895
1565711504,"2019-08-13 15:51:44",38.866821,-77.117761
1565711510,"2019-08-13 15:51:50",38.866762,-77.118875
1565711516,"2019-08-13 15:51:56",38.866748,-77.11977
1565711522,"2019-08-13 15:52:02",38.866721,-77.120119
1565711538,"2019-08-13 15:52:18",38.866701,-77.120501
1565711543,"2019-08-13 15:52:23",38.866691,-77.121084
1565711549,"2019-08-13 15:52:29",38.866608,-77.12208
1565711555,"2019-08-13 15:52:35",38.866645,-77.123205
1565711560,"2019-08-13 15:52:40",38.86658,-77.124266
1565711566,"2019-08-13 15:52:46",38.866543,-77.125541
1565711572,"2019-08-13 15:52:52",38.866589,-77.126698
1565711577,"2019-08-13 15:52:57",38.866529,-77.12784
1565711582,"2019-08-13 15:53:02",38.866465,-77.128933
1565711588,"2019-08-13 15:53:08",38.866435,-77.13027
1565711594,"2019-08-13 15:53:14",38.866426,-77.131509
1565711599,"2019-08-13 15:53:19",38.866411,-77.132497
1565711605,"2019-08-13 15:53:25",38.866387,-77.133624
1565711610,"2019-08-13 15:53:30",38.866352,-77.134512
1565711615,"2019-08-13 15:53:35",38.866331,-77.135392
1565711620,"2019-08-13 15:53:40",38.86627,-77.136283
1565711626,"2019-08-13 15:53:46",38.866215,-77.137448
1565711632,"2019-08-13 15:53:52",38.866181,-77.138652
1565711638,"2019-08-13 15:53:58",38.866237,-77.139834
1565711643,"2019-08-13 15:54:03",38.866419,-77.140795
1565711648,"2019-08-13 15:54:08",38.866751,-77.141769
1565711654,"2019-08-13 15:54:14",38.867176,-77.143028
1565711660,"2019-08-13 15:54:20",38.867682,-77.14427
1565711666,"2019-08-13 15:54:26",38.868212,-77.145391
1565711672,"2019-08-13 15:54:32",38.868496,-77.146104
1565711781,"2019-08-13 15:56:21",38.868649,-77.146482
1565711786,"2019-08-13 15:56:26",38.868892,-77.147071
1565711792,"2019-08-13 15:56:32",38.869252,-77.14801
1565711797,"2019-08-13 15:56:37",38.869613,-77.148925
1565711802,"2019-08-13 15:56:42",38.869997,-77.149904
1565711808,"2019-08-13 15:56:48",38.870463,-77.151037
1565711814,"2019-08-13 15:56:54",38.870932,-77.1522
1565711819,"2019-08-13 15:56:59",38.871337,-77.153179
1565711824,"2019-08-13 15:57:04",38.871733,-77.154117
1565711830,"2019-08-13 15:57:10",38.872155,-77.155292
1565711836,"2019-08-13 15:57:16",38.872402,-77.156588
1565711842,"2019-08-13 15:57:22",38.87247,-77.157963
1565711848,"2019-08-13 15:57:28",38.87232,-77.159434
1565711853,"2019-08-13 15:57:33",38.872122,-77.160612
1565711859,"2019-08-13 15:57:39",38.871892,-77.161999
1565711864,"2019-08-13 15:57:44",38.871696,-77.163122
1565711870,"2019-08-13 15:57:50",38.871484,-77.164421
1565711876,"2019-08-13 15:57:56",38.871256,-77.165741
1565711881,"2019-08-13 15:58:01",38.871055,-77.166933
1565711887,"2019-08-13 15:58:07",38.870823,-77.168341
1565711892,"2019-08-13 15:58:12",38.870633,-77.169495
1565711898,"2019-08-13 15:58:18",38.870424,-77.170859
1565711904,"2019-08-13 15:58:24",38.870259,-77.17198
1565711910,"2019-08-13 15:58:30",38.870182,-77.172386
1565712001,"2019-08-13 16:00:01",38.870085,-77.172765
1565712006,"2019-08-13 16:00:06",38.869988,-77.173227
1565712012,"2019-08-13 16:00:12",38.869869,-77.173963
1565712018,"2019-08-13 16:00:18",38.869717,-77.174916
1565712023,"2019-08-13 16:00:23",38.86957,-77.175761
1565712029,"2019-08-13 16:00:29",38.869385,-77.176801
1565712035,"2019-08-13 16:00:35",38.869212,-77.177895
1565712041,"2019-08-13 16:00:41",38.869023,-77.178993
1565712047,"2019-08-13 16:00:47",38.86885,-77.180071
1565712053,"2019-08-13 16:00:53",38.868674,-77.181164
1565712059,"2019-08-13 16:00:59",38.868498,-77.18224
1565712064,"2019-08-13 16:01:04",38.868328,-77.183219
1565712069,"2019-08-13 16:01:09",38.868153,-77.184215
1565712075,"2019-08-13 16:01:15",38.867939,-77.185437
1565712081,"2019-08-13 16:01:21",38.867728,-77.186658
1565712087,"2019-08-13 16:01:27",38.867544,-77.187854
1565712093,"2019-08-13 16:01:33",38.867428,-77.18903
1565712099,"2019-08-13 16:01:39",38.867263,-77.190234
1565712104,"2019-08-13 16:01:44",38.86707,-77.191221
1565712110,"2019-08-13 16:01:50",38.866838,-77.192377
1565712115,"2019-08-13 16:01:55",38.86666,-77.193361
1565712120,"2019-08-13 16:02:00",38.866533,-77.194185
1565712201,"2019-08-13 16:03:21",38.866451,-77.194534
1565712207,"2019-08-13 16:03:27",38.866411,-77.194899
1565712212,"2019-08-13 16:03:32",38.866328,-77.195535
1565712217,"2019-08-13 16:03:37",38.866266,-77.196394
1565712222,"2019-08-13 16:03:42",38.866233,-77.197383
1565712228,"2019-08-13 16:03:48",38.86618,-77.198625
1565712234,"2019-08-13 16:03:54",38.866193,-77.199861
1565712239,"2019-08-13 16:03:59",38.866166,-77.200944
1565712244,"2019-08-13 16:04:04",38.866159,-77.202006
1565712249,"2019-08-13 16:04:09",38.86615,-77.203097
1565712255,"2019-08-13 16:04:15",38.866115,-77.204472
1565712261,"2019-08-13 16:04:21",38.866113,-77.205846
1565712267,"2019-08-13 16:04:27",38.866073,-77.207112
1565712272,"2019-08-13 16:04:32",38.866077,-77.208095
1565712278,"2019-08-13 16:04:38",38.866061,-77.209489
1565712283,"2019-08-13 16:04:43",38.866081,-77.210656
1565712288,"2019-08-13 16:04:48",38.866044,-77.211925
1565712294,"2019-08-13 16:04:54",38.866039,-77.213433
1565712299,"2019-08-13 16:04:59",38.866029,-77.21461
1565712304,"2019-08-13 16:05:04",38.866274,-77.21563
1565712310,"2019-08-13 16:05:10",38.866667,-77.216695
1565712315,"2019-08-13 16:05:15",38.867053,-77.217695
1565712321,"2019-08-13 16:05:21",38.867508,-77.218904
1565712327,"2019-08-13 16:05:27",38.868332,-77.219606
1565712332,"2019-08-13 16:05:32",38.869232,-77.219621
1565712338,"2019-08-13 16:05:38",38.870435,-77.219624
1565712343,"2019-08-13 16:05:43",38.871512,-77.219643
1565712349,"2019-08-13 16:05:49",38.872816,-77.219653
1565712355,"2019-08-13 16:05:55",38.874149,-77.219767
1565712361,"2019-08-13 16:06:01",38.875474,-77.220037
1565712366,"2019-08-13 16:06:06",38.876676,-77.220349
1565712372,"2019-08-13 16:06:12",38.878016,-77.220673
1565712377,"2019-08-13 16:06:17",38.879123,-77.220924
1565712383,"2019-08-13 16:06:23",38.880333,-77.221191
1565712388,"2019-08-13 16:06:28",38.88131,-77.221268
1565712394,"2019-08-13 16:06:34",38.88246,-77.221131
1565712399,"2019-08-13 16:06:39",38.883404,-77.22092
1565712405,"2019-08-13 16:06:45",38.884423,-77.220364
1565712410,"2019-08-13 16:06:50",38.885343,-77.219882
1565712415,"2019-08-13 16:06:55",38.886248,-77.219429
1565712421,"2019-08-13 16:07:01",38.887387,-77.218837
1565712427,"2019-08-13 16:07:07",38.888539,-77.218228
1565712433,"2019-08-13 16:07:13",38.889413,-77.217551
1565712439,"2019-08-13 16:07:19",38.889612,-77.2166
1565712445,"2019-08-13 16:07:25",38.889023,-77.215986
1565712451,"2019-08-13 16:07:31",38.888327,-77.216577
1565712457,"2019-08-13 16:07:37",38.887865,-77.217784
1565712463,"2019-08-13 16:07:43",38.887288,-77.219252
1565712468,"2019-08-13 16:07:48",38.88683,-77.220517
1565712473,"2019-08-13 16:07:53",38.886302,-77.221742
1565712478,"2019-08-13 16:07:58",38.885853,-77.22295
1565712484,"2019-08-13 16:08:04",38.885202,-77.224452
1565712489,"2019-08-13 16:08:09",38.884637,-77.225787
1565712494,"2019-08-13 16:08:14",38.884073,-77.22713
1565712500,"2019-08-13 16:08:20",38.883427,-77.228716
1565712506,"2019-08-13 16:08:26",38.882792,-77.230343
1565712512,"2019-08-13 16:08:32",38.882233,-77.232008
1565712518,"2019-08-13 16:08:38",38.881732,-77.23368
1565712524,"2019-08-13 16:08:44",38.881185,-77.235327
1565712530,"2019-08-13 16:08:50",38.880715,-77.237037
1565712535,"2019-08-13 16:08:55",38.880393,-77.238536
1565712541,"2019-08-13 16:09:01",38.880113,-77.240277
1565712546,"2019-08-13 16:09:06",38.880004,-77.241778
1565712551,"2019-08-13 16:09:11",38.879898,-77.243313
1565712557,"2019-08-13 16:09:17",38.879782,-77.245259
1565712563,"2019-08-13 16:09:23",38.879673,-77.247212
1565712568,"2019-08-13 16:09:28",38.879598,-77.248917
1565712573,"2019-08-13 16:09:33",38.879505,-77.25054
1565712578,"2019-08-13 16:09:38",38.879381,-77.252218
1565712584,"2019-08-13 16:09:44",38.879285,-77.254218
1565712589,"2019-08-13 16:09:49",38.879214,-77.255789
1565712595,"2019-08-13 16:09:55",38.879129,-77.257619
1565712600,"2019-08-13 16:10:00",38.879011,-77.259221
1565712605,"2019-08-13 16:10:05",38.878929,-77.260736
1565712611,"2019-08-13 16:10:11",38.878818,-77.262531
1565712616,"2019-08-13 16:10:16",38.878724,-77.264072
1565712621,"2019-08-13 16:10:21",38.878653,-77.265588
1565712627,"2019-08-13 16:10:27",38.87852,-77.267478
1565712632,"2019-08-13 16:10:32",38.878396,-77.269078
1565712637,"2019-08-13 16:10:37",38.878197,-77.270638
1565712642,"2019-08-13 16:10:42",38.877943,-77.272201
1565712648,"2019-08-13 16:10:48",38.877587,-77.274006
1565712654,"2019-08-13 16:10:54",38.877187,-77.275711
1565712660,"2019-08-13 16:11:00",38.876727,-77.277463
1565712666,"2019-08-13 16:11:06",38.876197,-77.279194
1565712672,"2019-08-13 16:11:12",38.875649,-77.280893
1565712678,"2019-08-13 16:11:18",38.875161,-77.28252
1565712684,"2019-08-13 16:11:24",38.874619,-77.284222
1565712689,"2019-08-13 16:11:29",38.874153,-77.285754
1565712694,"2019-08-13 16:11:34",38.873728,-77.287312
1565712700,"2019-08-13 16:11:40",38.873189,-77.289136
1565712705,"2019-08-13 16:11:45",38.872736,-77.290703
1565712711,"2019-08-13 16:11:51",38.872195,-77.292585
1565712717,"2019-08-13 16:11:57",38.871676,-77.294381
1565712722,"2019-08-13 16:12:02",38.871292,-77.295896
1565712727,"2019-08-13 16:12:07",38.870909,-77.297502
1565712733,"2019-08-13 16:12:13",38.870518,-77.299504
1565712739,"2019-08-13 16:12:19",38.870161,-77.301467
1565712744,"2019-08-13 16:12:24",38.869895,-77.303028
1565712750,"2019-08-13 16:12:30",38.869541,-77.304886
1565712756,"2019-08-13 16:12:36",38.86929,-77.306566
1565712761,"2019-08-13 16:12:41",38.869028,-77.307915
1565712767,"2019-08-13 16:12:47",38.868775,-77.309532
1565712772,"2019-08-13 16:12:52",38.868512,-77.310929
1565712778,"2019-08-13 16:12:58",38.868182,-77.312661
1565712784,"2019-08-13 16:13:04",38.867879,-77.314369
1565712790,"2019-08-13 16:13:10",38.867565,-77.31599
1565712796,"2019-08-13 16:13:16",38.867265,-77.317622
1565712801,"2019-08-13 16:13:21",38.867023,-77.318999
1565712807,"2019-08-13 16:13:27",38.866791,-77.320625
1565712813,"2019-08-13 16:13:33",38.866487,-77.322312
1565712818,"2019-08-13 16:13:38",38.866237,-77.323722
1565712824,"2019-08-13 16:13:44",38.865899,-77.325562
1565712830,"2019-08-13 16:13:50",38.865489,-77.327516
1565712835,"2019-08-13 16:13:55",38.865185,-77.329132
1565712840,"2019-08-13 16:14:00",38.864924,-77.33071
1565712845,"2019-08-13 16:14:05",38.864637,-77.332233
1565712851,"2019-08-13 16:14:11",38.864367,-77.333967
1565712857,"2019-08-13 16:14:17",38.864013,-77.335802
1565712862,"2019-08-13 16:14:22",38.86374,-77.337357
1565712868,"2019-08-13 16:14:28",38.863402,-77.339332
1565712874,"2019-08-13 16:14:34",38.863042,-77.341426
1565712880,"2019-08-13 16:14:40",38.862657,-77.343491
1565712886,"2019-08-13 16:14:46",38.862283,-77.345534
1565712892,"2019-08-13 16:14:52",38.86196,-77.347497
1565712898,"2019-08-13 16:14:58",38.861649,-77.349445
1565712903,"2019-08-13 16:15:03",38.861338,-77.351068
1565712909,"2019-08-13 16:15:09",38.860945,-77.353098
1565712914,"2019-08-13 16:15:14",38.860658,-77.354776
1565712920,"2019-08-13 16:15:20",38.860335,-77.356763
1565712926,"2019-08-13 16:15:26",38.859997,-77.358768
1565712931,"2019-08-13 16:15:31",38.859678,-77.36045
1565712937,"2019-08-13 16:15:37",38.859299,-77.362465
1565712943,"2019-08-13 16:15:43",38.85894,-77.364464
1565712948,"2019-08-13 16:15:48",38.858615,-77.366187
1565712954,"2019-08-13 16:15:54",38.858262,-77.36818
1565712960,"2019-08-13 16:16:00",38.857885,-77.370204
1565712965,"2019-08-13 16:16:05",38.857581,-77.371912
1565712970,"2019-08-13 16:16:10",38.857256,-77.3737
1565712976,"2019-08-13 16:16:16",38.856862,-77.375825
1565712981,"2019-08-13 16:16:21",38.856561,-77.377548
1565712986,"2019-08-13 16:16:26",38.856256,-77.379274
1565712992,"2019-08-13 16:16:32",38.85585,-77.381404
1565712997,"2019-08-13 16:16:37",38.855539,-77.383155
1565713003,"2019-08-13 16:16:43",38.855138,-77.38529
1565713009,"2019-08-13 16:16:49",38.854749,-77.387413
1565713015,"2019-08-13 16:16:55",38.854362,-77.389542
1565713021,"2019-08-13 16:17:01",38.853974,-77.391692
1565713025,"2019-08-13 16:17:05",38.853757,-77.39304
1565713034,"2019-08-13 16:17:14",38.853274,-77.39576
1565713039,"2019-08-13 16:17:19",38.85302,-77.397227
1565713044,"2019-08-13 16:17:24",38.852717,-77.39874
1565713050,"2019-08-13 16:17:30",38.852352,-77.40065
1565713055,"2019-08-13 16:17:35",38.852026,-77.402369
1565713060,"2019-08-13 16:17:40",38.851712,-77.404159
1565713066,"2019-08-13 16:17:46",38.851318,-77.406296
1565713072,"2019-08-13 16:17:52",38.850905,-77.408479
1565713078,"2019-08-13 16:17:58",38.850514,-77.410771
1565713084,"2019-08-13 16:18:04",38.850083,-77.413093
1565713090,"2019-08-13 16:18:10",38.849681,-77.415367
1565713095,"2019-08-13 16:18:15",38.849359,-77.417223
1565713100,"2019-08-13 16:18:20",38.849006,-77.419082
1565713105,"2019-08-13 16:18:25",38.848686,-77.420947
1565713110,"2019-08-13 16:18:30",38.848405,-77.422722
1565713115,"2019-08-13 16:18:35",38.848058,-77.424445
1565713120,"2019-08-13 16:18:40",38.847746,-77.426162
1565713126,"2019-08-13 16:18:46",38.847347,-77.42826
1565713132,"2019-08-13 16:18:52",38.846987,-77.430319
1565713137,"2019-08-13 16:18:57",38.846708,-77.431973
1565713143,"2019-08-13 16:19:03",38.846298,-77.433915
1565713149,"2019-08-13 16:19:09",38.845725,-77.435813
1565713155,"2019-08-13 16:19:15",38.844986,-77.437658
1565713161,"2019-08-13 16:19:21",38.844137,-77.439448
1565713166,"2019-08-13 16:19:26",38.843268,-77.440871
1565713172,"2019-08-13 16:19:32",38.84214,-77.44238
1565713177,"2019-08-13 16:19:37",38.841122,-77.443532
1565713182,"2019-08-13 16:19:42",38.840026,-77.444539
1565713187,"2019-08-13 16:19:47",38.838958,-77.445508
1565713192,"2019-08-13 16:19:52",38.837861,-77.446476
1565713198,"2019-08-13 16:19:58",38.836583,-77.447652
1565713203,"2019-08-13 16:20:03",38.835463,-77.448599
1565713209,"2019-08-13 16:20:09",38.834171,-77.449796
1565713215,"2019-08-13 16:20:15",38.8328,-77.45097
1565713220,"2019-08-13 16:20:20",38.831666,-77.452
1565713225,"2019-08-13 16:20:25",38.83052,-77.452998
1565713231,"2019-08-13 16:20:31",38.829179,-77.454213
1565713236,"2019-08-13 16:20:36",38.828043,-77.455234
1565713241,"2019-08-13 16:20:41",38.826949,-77.456358
1565713247,"2019-08-13 16:20:47",38.825641,-77.457802
1565713252,"2019-08-13 16:20:52",38.824537,-77.459092
1565713258,"2019-08-13 16:20:58",38.823288,-77.460687
1565713263,"2019-08-13 16:21:03",38.822342,-77.462082
1565713268,"2019-08-13 16:21:08",38.821444,-77.463492
1565713274,"2019-08-13 16:21:14",38.820416,-77.465272
1565713280,"2019-08-13 16:21:20",38.819407,-77.467146
1565713285,"2019-08-13 16:21:25",38.818638,-77.468751
1565713291,"2019-08-13 16:21:31",38.817814,-77.470699
1565713296,"2019-08-13 16:21:36",38.81715,-77.472387
1565713301,"2019-08-13 16:21:41",38.816492,-77.474051
1565713306,"2019-08-13 16:21:46",38.81586,-77.475707
1565713311,"2019-08-13 16:21:51",38.815164,-77.477401
1565713317,"2019-08-13 16:21:57",38.814397,-77.479379
1565713322,"2019-08-13 16:22:02",38.813761,-77.481025
1565713328,"2019-08-13 16:22:08",38.812966,-77.483041
1565713333,"2019-08-13 16:22:13",38.81234,-77.484678
1565713338,"2019-08-13 16:22:18",38.811663,-77.486355
1565713344,"2019-08-13 16:22:24",38.810864,-77.488364
1565713349,"2019-08-13 16:22:29",38.810209,-77.49004
1565713355,"2019-08-13 16:22:35",38.809451,-77.49203
1565713361,"2019-08-13 16:22:41",38.808637,-77.494081
1565713366,"2019-08-13 16:22:46",38.807989,-77.495744
1565713372,"2019-08-13 16:22:52",38.807257,-77.497713
1565713378,"2019-08-13 16:22:58",38.806473,-77.499667
1565713384,"2019-08-13 16:23:04",38.8057,-77.501621
1565713390,"2019-08-13 16:23:10",38.804945,-77.503553
1565713396,"2019-08-13 16:23:16",38.804162,-77.505553
1565713401,"2019-08-13 16:23:21",38.803534,-77.507176
1565713407,"2019-08-13 16:23:27",38.802754,-77.509182
1565713413,"2019-08-13 16:23:33",38.802218,-77.511267
1565713418,"2019-08-13 16:23:38",38.801961,-77.51307
1565713423,"2019-08-13 16:23:43",38.801852,-77.514856
1565713429,"2019-08-13 16:23:49",38.801719,-77.516983
1565713434,"2019-08-13 16:23:54",38.801587,-77.518788
1565713440,"2019-08-13 16:24:00",38.801425,-77.520962
1565713446,"2019-08-13 16:24:06",38.801236,-77.523083
1565713451,"2019-08-13 16:24:11",38.801139,-77.524893
1565713457,"2019-08-13 16:24:17",38.801031,-77.52703
1565713462,"2019-08-13 16:24:22",38.800904,-77.528846
1565713467,"2019-08-13 16:24:27",38.800823,-77.530617
1565713473,"2019-08-13 16:24:33",38.800662,-77.532775
1565713479,"2019-08-13 16:24:39",38.800535,-77.534909
1565713485,"2019-08-13 16:24:45",38.800395,-77.537086
1565713491,"2019-08-13 16:24:51",38.800214,-77.539248
1565713497,"2019-08-13 16:24:57",38.800078,-77.541515
1565713503,"2019-08-13 16:25:03",38.79992,-77.54377
1565713508,"2019-08-13 16:25:08",38.799821,-77.545626
1565713513,"2019-08-13 16:25:13",38.799715,-77.54754
1565713518,"2019-08-13 16:25:18",38.799641,-77.549414
1565713524,"2019-08-13 16:25:24",38.799479,-77.55166
1565713530,"2019-08-13 16:25:30",38.799318,-77.553923
1565713535,"2019-08-13 16:25:35",38.799182,-77.555886
1565713540,"2019-08-13 16:25:40",38.799047,-77.557828
1565713546,"2019-08-13 16:25:46",38.798902,-77.560113
1565713552,"2019-08-13 16:25:52",38.798752,-77.562441
1565713557,"2019-08-13 16:25:57",38.79861,-77.564364
1565713562,"2019-08-13 16:26:02",38.798445,-77.566328
1565713568,"2019-08-13 16:26:08",38.798323,-77.56861
1565713573,"2019-08-13 16:26:13",38.798147,-77.570577
1565713579,"2019-08-13 16:26:19",38.797994,-77.572894
1565713584,"2019-08-13 16:26:24",38.797867,-77.574835
1565713590,"2019-08-13 16:26:30",38.79773,-77.577164
1565713595,"2019-08-13 16:26:35",38.797686,-77.579118
1565713601,"2019-08-13 16:26:41",38.797757,-77.581459
1565713606,"2019-08-13 16:26:46",38.7979,-77.583411
1565713611,"2019-08-13 16:26:51",38.798088,-77.585358
1565713617,"2019-08-13 16:26:57",38.798375,-77.587652
1565713622,"2019-08-13 16:27:02",38.798668,-77.589551
1565713627,"2019-08-13 16:27:07",38.798894,-77.591447
1565713633,"2019-08-13 16:27:13",38.799189,-77.593714
1565713639,"2019-08-13 16:27:19",38.799512,-77.595987
1565713644,"2019-08-13 16:27:24",38.799793,-77.597893
1565713649,"2019-08-13 16:27:29",38.800145,-77.59974
1565713655,"2019-08-13 16:27:35",38.800649,-77.601937
1565713661,"2019-08-13 16:27:41",38.80125,-77.60413
1565713666,"2019-08-13 16:27:46",38.801837,-77.605934
1565713671,"2019-08-13 16:27:51",38.802481,-77.607699
1565713677,"2019-08-13 16:27:57",38.803351,-77.609781
1565713683,"2019-08-13 16:28:03",38.804271,-77.611856
1565713688,"2019-08-13 16:28:08",38.805079,-77.613518
1565713693,"2019-08-13 16:28:13",38.805937,-77.615171
1565713699,"2019-08-13 16:28:19",38.806974,-77.61712
1565713705,"2019-08-13 16:28:25",38.80802,-77.619064
1565713710,"2019-08-13 16:28:30",38.808829,-77.62072
1565713716,"2019-08-13 16:28:36",38.809824,-77.622719
1565713721,"2019-08-13 16:28:41",38.810594,-77.624406
1565713727,"2019-08-13 16:28:47",38.811549,-77.62637
1565713732,"2019-08-13 16:28:52",38.812364,-77.628028
1565713737,"2019-08-13 16:28:57",38.813166,-77.629698
1565713743,"2019-08-13 16:29:03",38.81414,-77.631719
1565713749,"2019-08-13 16:29:09",38.815101,-77.633734
1565713755,"2019-08-13 16:29:15",38.816036,-77.635724
1565713760,"2019-08-13 16:29:20",38.816849,-77.637428
1565713766,"2019-08-13 16:29:26",38.817823,-77.639405
1565713771,"2019-08-13 16:29:31",38.818609,-77.641133
1565713776,"2019-08-13 16:29:36",38.819286,-77.642846
1565713782,"2019-08-13 16:29:42",38.820021,-77.645006
1565713787,"2019-08-13 16:29:47",38.82051,-77.646862
1565713792,"2019-08-13 16:29:52",38.820889,-77.648749
1565713798,"2019-08-13 16:29:58",38.82125,-77.651064
1565713803,"2019-08-13 16:30:03",38.821419,-77.653013
1565713809,"2019-08-13 16:30:09",38.82148,-77.655362
1565713814,"2019-08-13 16:30:14",38.821507,-77.657316
1565713820,"2019-08-13 16:30:20",38.821526,-77.659689
1565713826,"2019-08-13 16:30:26",38.821565,-77.662075
1565713832,"2019-08-13 16:30:32",38.821584,-77.664473
1565713837,"2019-08-13 16:30:37",38.821615,-77.666481
1565713843,"2019-08-13 16:30:43",38.821673,-77.668874
1565713849,"2019-08-13 16:30:49",38.821743,-77.67116
1565713854,"2019-08-13 16:30:54",38.82181,-77.673011
1565713860,"2019-08-13 16:31:00",38.821848,-77.675285
1565713865,"2019-08-13 16:31:05",38.821866,-77.677223
1565713871,"2019-08-13 16:31:11",38.821908,-77.679523
1565713876,"2019-08-13 16:31:16",38.821959,-77.681456
1565713882,"2019-08-13 16:31:22",38.822096,-77.683729
1565713888,"2019-08-13 16:31:28",38.8223,-77.686039
1565713893,"2019-08-13 16:31:33",38.822528,-77.687985
1565713899,"2019-08-13 16:31:39",38.822862,-77.690347
1565713905,"2019-08-13 16:31:45",38.823274,-77.69268
1565713910,"2019-08-13 16:31:50",38.823644,-77.694591
1565713915,"2019-08-13 16:31:55",38.824028,-77.696413
1565713921,"2019-08-13 16:32:01",38.824451,-77.698459
1565713926,"2019-08-13 16:32:06",38.824627,-77.700168
1565713932,"2019-08-13 16:32:12",38.824611,-77.702181
1565713938,"2019-08-13 16:32:18",38.824399,-77.704135
1565713944,"2019-08-13 16:32:24",38.824094,-77.706088
1565713950,"2019-08-13 16:32:30",38.823947,-77.707972
1565713955,"2019-08-13 16:32:35",38.823885,-77.709574
1565713961,"2019-08-13 16:32:41",38.823946,-77.711614
1565713967,"2019-08-13 16:32:47",38.824175,-77.713667
1565713973,"2019-08-13 16:32:53",38.824619,-77.715658
1565713978,"2019-08-13 16:32:58",38.825031,-77.717388
1565713984,"2019-08-13 16:33:04",38.825586,-77.719486
1565713990,"2019-08-13 16:33:10",38.826108,-77.721578
1565713996,"2019-08-13 16:33:16",38.826652,-77.723666
1565714001,"2019-08-13 16:33:21",38.827104,-77.72543
1565714007,"2019-08-13 16:33:27",38.827644,-77.72754
1565714012,"2019-08-13 16:33:32",38.828073,-77.729246
1565714018,"2019-08-13 16:33:38",38.828849,-77.731256
1565714023,"2019-08-13 16:33:43",38.829565,-77.732858
1565714029,"2019-08-13 16:33:49",38.830588,-77.734596
1565714035,"2019-08-13 16:33:55",38.831827,-77.736213
1565714041,"2019-08-13 16:34:01",38.833118,-77.737652
1565714046,"2019-08-13 16:34:06",38.834246,-77.738798
1565714052,"2019-08-13 16:34:12",38.835591,-77.740191
1565714057,"2019-08-13 16:34:17",38.836706,-77.74138
1565714063,"2019-08-13 16:34:23",38.837975,-77.742854
1565714068,"2019-08-13 16:34:28",38.839008,-77.74411
1565714073,"2019-08-13 16:34:33",38.840065,-77.745383
1565714079,"2019-08-13 16:34:39",38.8413,-77.74695
1565714084,"2019-08-13 16:34:44",38.842324,-77.748247
1565714089,"2019-08-13 16:34:49",38.843341,-77.749565
1565714094,"2019-08-13 16:34:54",38.844363,-77.750863
1565714100,"2019-08-13 16:35:00",38.845417,-77.752532
1565714105,"2019-08-13 16:35:05",38.846201,-77.754068
1565714110,"2019-08-13 16:35:10",38.846771,-77.755572
1565714115,"2019-08-13 16:35:15",38.847201,-77.757076
1565714120,"2019-08-13 16:35:20",38.84748,-77.758639
1565714126,"2019-08-13 16:35:26",38.847704,-77.760473
1565714131,"2019-08-13 16:35:31",38.847735,-77.762022
1565714137,"2019-08-13 16:35:37",38.847714,-77.763923
1565714142,"2019-08-13 16:35:42",38.847701,-77.765517
1565714148,"2019-08-13 16:35:48",38.847696,-77.7675
1565714154,"2019-08-13 16:35:54",38.84767,-77.769589
1565714160,"2019-08-13 16:36:00",38.847642,-77.771681
1565714166,"2019-08-13 16:36:06",38.847647,-77.773735
1565714172,"2019-08-13 16:36:12",38.847622,-77.775711
1565714178,"2019-08-13 16:36:18",38.847592,-77.777631
1565714183,"2019-08-13 16:36:23",38.847597,-77.779287
1565714189,"2019-08-13 16:36:29",38.847696,-77.781235
1565714194,"2019-08-13 16:36:34",38.847935,-77.78286
1565714200,"2019-08-13 16:36:40",38.848401,-77.784769
1565714205,"2019-08-13 16:36:45",38.848941,-77.786302
1565714211,"2019-08-13 16:36:51",38.849688,-77.788069
1565714217,"2019-08-13 16:36:57",38.850514,-77.789778
1565714222,"2019-08-13 16:37:02",38.851228,-77.791238
1565714228,"2019-08-13 16:37:08",38.852098,-77.793
1565714233,"2019-08-13 16:37:13",38.852818,-77.794497
1565714239,"2019-08-13 16:37:19",38.853691,-77.796369
1565714244,"2019-08-13 16:37:24",38.854325,-77.797972
1565714249,"2019-08-13 16:37:29",38.854902,-77.799603
1565714254,"2019-08-13 16:37:34",38.855451,-77.801271
1565714260,"2019-08-13 16:37:40",38.856054,-77.803339
1565714265,"2019-08-13 16:37:45",38.856445,-77.805096
1565714271,"2019-08-13 16:37:51",38.856824,-77.807256
1565714277,"2019-08-13 16:37:57",38.857134,-77.809433
1565714282,"2019-08-13 16:38:02",38.857311,-77.811267
1565714287,"2019-08-13 16:38:07",38.857435,-77.813144
1565714292,"2019-08-13 16:38:12",38.857573,-77.814991
1565714297,"2019-08-13 16:38:17",38.857706,-77.816877
1565714303,"2019-08-13 16:38:23",38.857858,-77.819155
1565714308,"2019-08-13 16:38:28",38.857981,-77.821026
1565714313,"2019-08-13 16:38:33",38.858107,-77.822927
1565714319,"2019-08-13 16:38:39",38.858272,-77.825179
1565714325,"2019-08-13 16:38:45",38.858419,-77.827428
1565714330,"2019-08-13 16:38:50",38.85854,-77.829306
1565714336,"2019-08-13 16:38:56",38.85869,-77.831545
1565714342,"2019-08-13 16:39:02",38.858765,-77.833809
1565714348,"2019-08-13 16:39:08",38.85883,-77.836089
1565714354,"2019-08-13 16:39:14",38.858796,-77.838358
1565714360,"2019-08-13 16:39:20",38.858693,-77.840597
1565714365,"2019-08-13 16:39:25",38.858603,-77.842477
1565714371,"2019-08-13 16:39:31",38.858502,-77.84472
1565714376,"2019-08-13 16:39:36",38.858426,-77.846588
1565714382,"2019-08-13 16:39:42",38.858307,-77.84885
1565714387,"2019-08-13 16:39:47",38.858182,-77.85074
1565714393,"2019-08-13 16:39:53",38.85807,-77.853016
1565714398,"2019-08-13 16:39:58",38.857967,-77.854897
1565714404,"2019-08-13 16:40:04",38.8579,-77.857124
1565714410,"2019-08-13 16:40:10",38.857826,-77.859387
1565714416,"2019-08-13 16:40:16",38.857985,-77.861627
1565714421,"2019-08-13 16:40:21",38.8583,-77.863444
1565714426,"2019-08-13 16:40:26",38.85869,-77.865272
1565714431,"2019-08-13 16:40:31",38.859183,-77.867062
1565714437,"2019-08-13 16:40:37",38.859769,-77.869194
1565714442,"2019-08-13 16:40:42",38.860262,-77.870981
1565714448,"2019-08-13 16:40:48",38.860873,-77.873129
1565714454,"2019-08-13 16:40:54",38.861568,-77.875219
1565714459,"2019-08-13 16:40:59",38.862269,-77.876915
1565714465,"2019-08-13 16:41:05",38.863189,-77.878832
1565714471,"2019-08-13 16:41:11",38.864237,-77.880639
1565714477,"2019-08-13 16:41:17",38.865243,-77.882553
1565714483,"2019-08-13 16:41:23",38.866298,-77.884339
1565714488,"2019-08-13 16:41:28",38.867187,-77.885879
1565714493,"2019-08-13 16:41:33",38.868023,-77.88739
1565714497,"2019-08-13 16:41:37",38.868718,-77.888587
1565714504,"2019-08-13 16:41:44",38.869939,-77.890694
1565714510,"2019-08-13 16:41:50",38.871007,-77.892504
1565714515,"2019-08-13 16:41:55",38.871873,-77.894036
1565714520,"2019-08-13 16:42:00",38.872769,-77.895568
1565714526,"2019-08-13 16:42:06",38.873731,-77.897374
1565714532,"2019-08-13 16:42:12",38.874834,-77.899249
1565714537,"2019-08-13 16:42:17",38.875705,-77.900778
1565714542,"2019-08-13 16:42:22",38.876593,-77.902322
1565714548,"2019-08-13 16:42:28",38.87778,-77.903973
1565714554,"2019-08-13 16:42:34",38.879271,-77.905113
1565714559,"2019-08-13 16:42:39",38.88071,-77.905602
1565714564,"2019-08-13 16:42:44",38.882194,-77.905765
1565714570,"2019-08-13 16:42:50",38.883954,-77.905928
1565714576,"2019-08-13 16:42:56",38.88571,-77.90616
1565714582,"2019-08-13 16:43:02",38.887437,-77.906716
1565714587,"2019-08-13 16:43:07",38.888811,-77.907444
1565714592,"2019-08-13 16:43:12",38.890095,-77.90834
1565714597,"2019-08-13 16:43:17",38.891389,-77.909211
1565714603,"2019-08-13 16:43:23",38.892959,-77.910263
1565714608,"2019-08-13 16:43:28",38.894226,-77.911231
1565714614,"2019-08-13 16:43:34",38.895479,-77.912827
1565714619,"2019-08-13 16:43:39",38.896346,-77.914349
1565714625,"2019-08-13 16:43:45",38.897297,-77.916239
1565714631,"2019-08-13 16:43:51",38.898334,-77.918084
1565714636,"2019-08-13 16:43:56",38.899102,-77.919586
1565714642,"2019-08-13 16:44:02",38.899911,-77.921391
1565714647,"2019-08-13 16:44:07",38.900485,-77.922976
1565714653,"2019-08-13 16:44:13",38.901102,-77.92492
1565714659,"2019-08-13 16:44:19",38.901607,-77.926864
1565714665,"2019-08-13 16:44:25",38.901988,-77.928873
1565714671,"2019-08-13 16:44:31",38.902288,-77.93099
1565714676,"2019-08-13 16:44:36",38.902377,-77.932811
1565714682,"2019-08-13 16:44:42",38.902389,-77.935055
1565714688,"2019-08-13 16:44:48",38.902368,-77.937253
1565714694,"2019-08-13 16:44:54",38.902529,-77.939458
1565714699,"2019-08-13 16:44:59",38.902859,-77.941134
1565714704,"2019-08-13 16:45:04",38.903331,-77.9427
1565714709,"2019-08-13 16:45:09",38.903834,-77.944287
1565714715,"2019-08-13 16:45:15",38.904439,-77.946253
1565714720,"2019-08-13 16:45:20",38.904958,-77.947874
1565714726,"2019-08-13 16:45:26",38.905577,-77.949853
1565714732,"2019-08-13 16:45:32",38.9062,-77.951863
1565714737,"2019-08-13 16:45:37",38.906717,-77.953504
1565714743,"2019-08-13 16:45:43",38.907361,-77.955471
1565714748,"2019-08-13 16:45:48",38.907886,-77.957196
1565714753,"2019-08-13 16:45:53",38.908424,-77.958896
1565714759,"2019-08-13 16:45:59",38.90878,-77.961036
1565714763,"2019-08-13 16:46:03",38.908756,-77.962885
1565714770,"2019-08-13 16:46:10",38.908394,-77.965047
1565714776,"2019-08-13 16:46:16",38.908124,-77.967216
1565714781,"2019-08-13 16:46:21",38.908291,-77.969073
1565714786,"2019-08-13 16:46:26",38.908684,-77.970843
1565714791,"2019-08-13 16:46:31",38.909133,-77.972538
1565714797,"2019-08-13 16:46:37",38.909565,-77.974647
1565714802,"2019-08-13 16:46:42",38.909732,-77.976472
1565714807,"2019-08-13 16:46:47",38.90977,-77.978286
1565714813,"2019-08-13 16:46:53",38.909589,-77.980296
1565714819,"2019-08-13 16:46:59",38.909223,-77.982129
1565714825,"2019-08-13 16:47:05",38.908793,-77.983913
1565714830,"2019-08-13 16:47:10",38.908434,-77.985359
1565714836,"2019-08-13 16:47:16",38.908035,-77.987184
1565714842,"2019-08-13 16:47:22",38.907807,-77.989102
1565714847,"2019-08-13 16:47:27",38.907691,-77.990776
1565714852,"2019-08-13 16:47:32",38.907592,-77.992496
1565714858,"2019-08-13 16:47:38",38.907523,-77.994647
1565714864,"2019-08-13 16:47:44",38.907415,-77.996776
1565714869,"2019-08-13 16:47:49",38.907343,-77.998549
1565714875,"2019-08-13 16:47:55",38.907238,-78.00067
1565714881,"2019-08-13 16:48:01",38.90716,-78.002785
1565714886,"2019-08-13 16:48:06",38.907058,-78.004563
1565714892,"2019-08-13 16:48:12",38.906938,-78.006664
1565714897,"2019-08-13 16:48:17",38.906882,-78.008415
1565714903,"2019-08-13 16:48:23",38.906807,-78.010552
1565714908,"2019-08-13 16:48:28",38.906734,-78.01234
1565714913,"2019-08-13 16:48:33",38.906698,-78.014075
1565714919,"2019-08-13 16:48:39",38.90681,-78.016194
1565714924,"2019-08-13 16:48:44",38.906879,-78.018036
1565714930,"2019-08-13 16:48:50",38.907137,-78.020111
1565714935,"2019-08-13 16:48:55",38.907388,-78.021833
1565714941,"2019-08-13 16:49:01",38.907695,-78.023858
1565714947,"2019-08-13 16:49:07",38.907991,-78.025864
1565714952,"2019-08-13 16:49:12",38.908234,-78.027532
1565714958,"2019-08-13 16:49:18",38.908526,-78.029518
1565714963,"2019-08-13 16:49:23",38.908783,-78.031191
1565714969,"2019-08-13 16:49:29",38.909089,-78.033198
1565714975,"2019-08-13 16:49:35",38.909387,-78.035211
1565714980,"2019-08-13 16:49:40",38.909637,-78.036879
1565714986,"2019-08-13 16:49:46",38.909912,-78.038881
1565714992,"2019-08-13 16:49:52",38.910154,-78.040861
1565714997,"2019-08-13 16:49:57",38.910286,-78.042502
1565715003,"2019-08-13 16:50:03",38.91039,-78.044465
1565715008,"2019-08-13 16:50:08",38.910417,-78.046094
1565715014,"2019-08-13 16:50:14",38.910459,-78.048096
1565715020,"2019-08-13 16:50:20",38.910491,-78.050119
1565715026,"2019-08-13 16:50:26",38.910509,-78.05213
1565715031,"2019-08-13 16:50:31",38.910565,-78.053783
1565715036,"2019-08-13 16:50:36",38.910582,-78.055467
1565715042,"2019-08-13 16:50:42",38.910619,-78.057502
1565715047,"2019-08-13 16:50:47",38.910636,-78.059159
1565715053,"2019-08-13 16:50:53",38.910763,-78.061024
1565715059,"2019-08-13 16:50:59",38.910901,-78.062897
1565715064,"2019-08-13 16:51:04",38.911042,-78.06447
1565715069,"2019-08-13 16:51:09",38.911191,-78.066056
1565715074,"2019-08-13 16:51:14",38.911349,-78.067698
1565715080,"2019-08-13 16:51:20",38.911548,-78.069761
1565715085,"2019-08-13 16:51:25",38.911709,-78.071534
1565715091,"2019-08-13 16:51:31",38.911879,-78.073696
1565715097,"2019-08-13 16:51:37",38.911864,-78.075854
1565715102,"2019-08-13 16:51:42",38.911726,-78.077632
1565715108,"2019-08-13 16:51:48",38.91145,-78.079789
1565715114,"2019-08-13 16:51:54",38.911204,-78.081974
1565715119,"2019-08-13 16:51:59",38.91125,-78.083808
1565715124,"2019-08-13 16:52:04",38.911561,-78.085606
1565715129,"2019-08-13 16:52:09",38.912138,-78.087289
1565715134,"2019-08-13 16:52:14",38.912894,-78.088895
1565715140,"2019-08-13 16:52:20",38.91382,-78.090797
1565715145,"2019-08-13 16:52:25",38.914477,-78.092453
1565715151,"2019-08-13 16:52:31",38.91501,-78.094695
1565715157,"2019-08-13 16:52:37",38.915368,-78.097011
1565715163,"2019-08-13 16:52:43",38.915723,-78.09929
1565715169,"2019-08-13 16:52:49",38.916123,-78.101582
1565715174,"2019-08-13 16:52:54",38.91643,-78.103459
1565715179,"2019-08-13 16:52:59",38.916743,-78.10538
1565715185,"2019-08-13 16:53:05",38.917113,-78.107702
1565715190,"2019-08-13 16:53:10",38.917413,-78.109614
1565715195,"2019-08-13 16:53:15",38.917707,-78.111555
1565715201,"2019-08-13 16:53:21",38.918076,-78.113827
1565715207,"2019-08-13 16:53:27",38.91846,-78.116132
1565715212,"2019-08-13 16:53:32",38.918757,-78.11803
1565715217,"2019-08-13 16:53:37",38.91906,-78.119903
1565715223,"2019-08-13 16:53:43",38.919491,-78.12221
1565715228,"2019-08-13 16:53:48",38.920183,-78.124019
1565715234,"2019-08-13 16:53:54",38.921238,-78.125922
1565715240,"2019-08-13 16:54:00",38.922634,-78.127464
1565715245,"2019-08-13 16:54:05",38.923954,-78.128484
1565715251,"2019-08-13 16:54:11",38.92568,-78.129255
1565715256,"2019-08-13 16:54:16",38.927219,-78.129507
1565715262,"2019-08-13 16:54:22",38.929071,-78.12939
1565715267,"2019-08-13 16:54:27",38.930571,-78.129235
1565715272,"2019-08-13 16:54:32",38.932099,-78.129033
1565715277,"2019-08-13 16:54:37",38.933637,-78.128876
1565715283,"2019-08-13 16:54:43",38.935452,-78.129083
1565715288,"2019-08-13 16:54:48",38.936886,-78.12962
1565715293,"2019-08-13 16:54:53",38.938253,-78.130443
1565715299,"2019-08-13 16:54:59",38.93975,-78.131779
1565715304,"2019-08-13 16:55:04",38.940817,-78.133179
1565715310,"2019-08-13 16:55:10",38.941832,-78.135135
1565715316,"2019-08-13 16:55:16",38.942582,-78.137292
1565715322,"2019-08-13 16:55:22",38.943332,-78.13942
1565715327,"2019-08-13 16:55:27",38.943937,-78.141181
1565715333,"2019-08-13 16:55:33",38.944715,-78.14331
1565715338,"2019-08-13 16:55:38",38.945353,-78.14511
1565715344,"2019-08-13 16:55:44",38.946075,-78.147319
1565715349,"2019-08-13 16:55:49",38.946596,-78.149222
1565715355,"2019-08-13 16:55:55",38.94712,-78.151478
1565715360,"2019-08-13 16:56:00",38.947506,-78.153421
1565715366,"2019-08-13 16:56:06",38.947965,-78.155752
1565715372,"2019-08-13 16:56:12",38.948431,-78.15809
1565715378,"2019-08-13 16:56:18",38.948837,-78.160413
1565715383,"2019-08-13 16:56:23",38.94921,-78.162398
1565715388,"2019-08-13 16:56:28",38.949547,-78.164405
1565715393,"2019-08-13 16:56:33",38.949933,-78.166386
1565715398,"2019-08-13 16:56:38",38.950272,-78.168375
1565715404,"2019-08-13 16:56:44",38.95075,-78.170794
1565715409,"2019-08-13 16:56:49",38.951146,-78.172825
1565715415,"2019-08-13 16:56:55",38.951605,-78.175237
1565715420,"2019-08-13 16:57:00",38.952023,-78.177256
1565715426,"2019-08-13 16:57:06",38.952751,-78.179565
1565715431,"2019-08-13 16:57:11",38.953549,-78.181346
1565715436,"2019-08-13 16:57:16",38.95453,-78.183007
1565715441,"2019-08-13 16:57:21",38.955642,-78.184604
1565715447,"2019-08-13 16:57:27",38.956975,-78.186566
1565715452,"2019-08-13 16:57:32",38.95808,-78.188191
1565715458,"2019-08-13 16:57:38",38.959386,-78.190149
1565715463,"2019-08-13 16:57:43",38.96045,-78.1918
1565715469,"2019-08-13 16:57:49",38.961725,-78.193733
1565715475,"2019-08-13 16:57:55",38.962973,-78.195674
1565715481,"2019-08-13 16:58:01",38.964216,-78.197626
1565715486,"2019-08-13 16:58:06",38.965264,-78.199257
1565715492,"2019-08-13 16:58:12",38.966595,-78.201165
1565715497,"2019-08-13 16:58:17",38.96762,-78.202735
1565715502,"2019-08-13 16:58:22",38.968599,-78.204285
1565715508,"2019-08-13 16:58:28",38.969806,-78.206151
1565715513,"2019-08-13 16:58:33",38.970747,-78.207751
1565715519,"2019-08-13 16:58:39",38.971781,-78.209693
1565715524,"2019-08-13 16:58:44",38.972682,-78.211307
1565715530,"2019-08-13 16:58:50",38.973704,-78.213248
1565715535,"2019-08-13 16:58:55",38.974582,-78.214908
1565715541,"2019-08-13 16:59:01",38.975631,-78.216857
1565715546,"2019-08-13 16:59:06",38.976498,-78.218514
1565715552,"2019-08-13 16:59:12",38.977525,-78.220489
1565715558,"2019-08-13 16:59:18",38.978584,-78.222464
1565715563,"2019-08-13 16:59:23",38.979458,-78.224089
1565715569,"2019-08-13 16:59:29",38.980505,-78.22608
1565715575,"2019-08-13 16:59:35",38.981569,-78.228092
1565715580,"2019-08-13 16:59:40",38.982447,-78.229686
1565715585,"2019-08-13 16:59:45",38.98333,-78.231321
1565715591,"2019-08-13 16:59:51",38.984371,-78.23329
1565715597,"2019-08-13 16:59:57",38.985414,-78.235247
1565715602,"2019-08-13 17:00:02",38.986283,-78.236906
1565715606,"2019-08-13 17:00:06",38.987135,-78.238547
1565715613,"2019-08-13 17:00:13",38.988215,-78.240505
1565715619,"2019-08-13 17:00:19",38.989266,-78.242495
1565715625,"2019-08-13 17:00:25",38.990309,-78.244476
1565715631,"2019-08-13 17:00:31",38.991364,-78.246452
1565715637,"2019-08-13 17:00:37",38.992411,-78.248429
1565715642,"2019-08-13 17:00:42",38.993282,-78.250074
1565715648,"2019-08-13 17:00:48",38.994193,-78.252108
1565715653,"2019-08-13 17:00:53",38.994787,-78.253921
1565715659,"2019-08-13 17:00:59",38.99534,-78.256203
1565715664,"2019-08-13 17:01:04",38.995653,-78.258132
1565715670,"2019-08-13 17:01:10",38.995997,-78.260479
1565715676,"2019-08-13 17:01:16",38.996411,-78.262872
1565715682,"2019-08-13 17:01:22",38.996898,-78.265197
1565715688,"2019-08-13 17:01:28",38.997404,-78.267482
1565715694,"2019-08-13 17:01:34",38.997952,-78.26978
1565715699,"2019-08-13 17:01:39",38.998402,-78.271614
1565715705,"2019-08-13 17:01:45",38.998879,-78.273568
1565715711,"2019-08-13 17:01:51",38.999312,-78.275247
1565715717,"2019-08-13 17:01:57",38.99971,-78.27687
1565715723,"2019-08-13 17:02:03",39.000057,-78.278398
1565715729,"2019-08-13 17:02:09",39.000454,-78.279947
1565715734,"2019-08-13 17:02:14",39.000774,-78.281221
1565715739,"2019-08-13 17:02:19",39.001108,-78.282596
1565715744,"2019-08-13 17:02:24",39.001446,-78.283962
1565715749,"2019-08-13 17:02:29",39.001943,-78.285285
1565715755,"2019-08-13 17:02:35",39.002704,-78.286821
1565715760,"2019-08-13 17:02:40",39.003485,-78.287977
1565715766,"2019-08-13 17:02:46",39.004531,-78.289311
1565715772,"2019-08-13 17:02:52",39.005603,-78.290639
1565715778,"2019-08-13 17:02:58",39.006701,-78.291983
1565715784,"2019-08-13 17:03:04",39.00778,-78.293328
1565715790,"2019-08-13 17:03:10",39.00885,-78.29468
1565715795,"2019-08-13 17:03:15",39.009518,-78.295952
1565715801,"2019-08-13 17:03:21",39.009894,-78.29756
1565715807,"2019-08-13 17:03:27",39.009846,-78.299192
1565715813,"2019-08-13 17:03:33",39.009397,-78.300811
1565715818,"2019-08-13 17:03:38",39.008742,-78.301979
1565715824,"2019-08-13 17:03:44",39.007839,-78.303349
1565715830,"2019-08-13 17:03:50",39.007038,-78.304862
1565715835,"2019-08-13 17:03:55",39.006477,-78.306243
1565715840,"2019-08-13 17:04:00",39.005949,-78.307716
1565715846,"2019-08-13 17:04:06",39.005457,-78.309534
1565715852,"2019-08-13 17:04:12",39.004978,-78.311424
1565715858,"2019-08-13 17:04:18",39.004494,-78.313393
1565715864,"2019-08-13 17:04:24",39.004142,-78.315483
1565715869,"2019-08-13 17:04:29",39.003971,-78.317272
1565715874,"2019-08-13 17:04:34",39.00396,-78.319076
1565715880,"2019-08-13 17:04:40",39.004065,-78.321196
1565715885,"2019-08-13 17:04:45",39.004279,-78.322846
1565715891,"2019-08-13 17:04:51",39.004655,-78.324682
1565715897,"2019-08-13 17:04:57",39.005142,-78.326359
1565715903,"2019-08-13 17:05:03",39.00571,-78.327926
1565715908,"2019-08-13 17:05:08",39.006206,-78.32921
1565715914,"2019-08-13 17:05:14",39.006805,-78.330733
1565715920,"2019-08-13 17:05:20",39.007364,-78.332222
1565715925,"2019-08-13 17:05:25",39.007846,-78.333542
1565715930,"2019-08-13 17:05:30",39.008389,-78.334895
1565715936,"2019-08-13 17:05:36",39.009063,-78.336455
1565715942,"2019-08-13 17:05:42",39.009677,-78.33803
1565715948,"2019-08-13 17:05:48",39.010275,-78.339577
1565715954,"2019-08-13 17:05:54",39.010901,-78.341118
1565715960,"2019-08-13 17:06:00",39.011485,-78.3427
1565715965,"2019-08-13 17:06:05",39.012013,-78.344049
1565715971,"2019-08-13 17:06:11",39.012661,-78.345676
1565715977,"2019-08-13 17:06:17",39.013291,-78.347265
1565715983,"2019-08-13 17:06:23",39.013919,-78.348863
1565715988,"2019-08-13 17:06:28",39.01445,-78.350206
1565715994,"2019-08-13 17:06:34",39.015025,-78.351865
1565716000,"2019-08-13 17:06:40",39.015329,-78.353579
1565716006,"2019-08-13 17:06:46",39.015346,-78.35531
1565716011,"2019-08-13 17:06:51",39.015169,-78.356678
1565716017,"2019-08-13 17:06:57",39.014724,-78.358272
1565716022,"2019-08-13 17:07:02",39.014349,-78.359511
1565716028,"2019-08-13 17:07:08",39.013953,-78.3607
1565716033,"2019-08-13 17:07:13",39.01372,-78.361446
1565716039,"2019-08-13 17:07:19",39.013518,-78.362127
1565716045,"2019-08-13 17:07:25",39.013386,-78.362549
1565716058,"2019-08-13 17:07:38",39.01346,-78.362884
1565716063,"2019-08-13 17:07:43",39.01377,-78.362872
1565716069,"2019-08-13 17:07:49",39.014407,-78.362594
1565716074,"2019-08-13 17:07:54",39.015097,-78.36232
1565716080,"2019-08-13 17:08:00",39.015907,-78.362038
1565716085,"2019-08-13 17:08:05",39.016587,-78.36176
1565716090,"2019-08-13 17:08:10",39.017379,-78.361457
1565716095,"2019-08-13 17:08:15",39.018169,-78.361107
1565716101,"2019-08-13 17:08:21",39.019131,-78.360728
1565716107,"2019-08-13 17:08:27",39.020241,-78.360702
1565716112,"2019-08-13 17:08:32",39.021157,-78.361055
1565716117,"2019-08-13 17:08:37",39.021978,-78.361679
1565716123,"2019-08-13 17:08:43",39.022959,-78.362518
1565716129,"2019-08-13 17:08:49",39.023948,-78.363338
1565716135,"2019-08-13 17:08:55",39.024945,-78.364129
1565716141,"2019-08-13 17:09:01",39.025969,-78.364926
1565716146,"2019-08-13 17:09:06",39.026798,-78.365634
1565716151,"2019-08-13 17:09:11",39.027625,-78.366344
1565716156,"2019-08-13 17:09:16",39.028384,-78.367191
1565716162,"2019-08-13 17:09:22",39.029229,-78.368261
1565716167,"2019-08-13 17:09:27",39.029922,-78.369213
1565716173,"2019-08-13 17:09:33",39.030723,-78.370305
1565716179,"2019-08-13 17:09:39",39.031546,-78.37142
1565716184,"2019-08-13 17:09:44",39.032064,-78.372514
1565716190,"2019-08-13 17:09:50",39.032492,-78.373949
1565716195,"2019-08-13 17:09:55",39.03277,-78.375205
1565716200,"2019-08-13 17:10:00",39.033041,-78.376454
1565716206,"2019-08-13 17:10:06",39.033373,-78.377967
1565716211,"2019-08-13 17:10:11",39.033617,-78.379224
1565716216,"2019-08-13 17:10:16",39.033884,-78.380474
1565716222,"2019-08-13 17:10:22",39.034756,-78.381885
1565716227,"2019-08-13 17:10:27",39.03573,-78.382541
1565716233,"2019-08-13 17:10:33",39.036913,-78.38312
1565716239,"2019-08-13 17:10:39",39.038103,-78.383301
1565716245,"2019-08-13 17:10:45",39.039292,-78.382846
1565716250,"2019-08-13 17:10:50",39.040165,-78.382083
1565716256,"2019-08-13 17:10:56",39.041138,-78.381102
1565716261,"2019-08-13 17:11:01",39.041988,-78.380296
1565716266,"2019-08-13 17:11:06",39.042902,-78.379438
1565716272,"2019-08-13 17:11:12",39.044044,-78.378381
1565716278,"2019-08-13 17:11:18",39.045194,-78.377327
1565716284,"2019-08-13 17:11:24",39.046323,-78.376254
1565716289,"2019-08-13 17:11:29",39.047281,-78.375362
1565716295,"2019-08-13 17:11:35",39.048412,-78.374299
1565716300,"2019-08-13 17:11:40",39.049343,-78.373404
1565716305,"2019-08-13 17:11:45",39.050283,-78.372444
1565716311,"2019-08-13 17:11:51",39.051333,-78.371236
1565716316,"2019-08-13 17:11:56",39.052205,-78.370229
1565716322,"2019-08-13 17:12:02",39.053262,-78.369016
1565716327,"2019-08-13 17:12:07",39.054112,-78.368098
1565716333,"2019-08-13 17:12:13",39.055312,-78.367729
1565716338,"2019-08-13 17:12:18",39.056235,-78.368124
1565716344,"2019-08-13 17:12:24",39.057171,-78.369059
1565716349,"2019-08-13 17:12:29",39.057931,-78.369792
1565716354,"2019-08-13 17:12:34",39.058708,-78.370507
1565716360,"2019-08-13 17:12:40",39.059681,-78.371368
1565716366,"2019-08-13 17:12:46",39.060629,-78.372167
1565716371,"2019-08-13 17:12:51",39.061476,-78.372553
1565716377,"2019-08-13 17:12:57",39.062761,-78.372311
1565716383,"2019-08-13 17:13:03",39.064071,-78.37197
1565716389,"2019-08-13 17:13:09",39.065405,-78.371622
1565716395,"2019-08-13 17:13:15",39.066712,-78.371279
1565716401,"2019-08-13 17:13:21",39.067996,-78.370942
1565716406,"2019-08-13 17:13:26",39.069057,-78.370672
1565716412,"2019-08-13 17:13:32",39.070355,-78.370326
1565716417,"2019-08-13 17:13:37",39.071404,-78.370221
1565716423,"2019-08-13 17:13:43",39.072418,-78.370852
1565716429,"2019-08-13 17:13:49",39.073187,-78.372138
1565716434,"2019-08-13 17:13:54",39.073823,-78.373159
1565716439,"2019-08-13 17:13:59",39.07448,-78.37421
1565716445,"2019-08-13 17:14:05",39.075272,-78.375459
1565716451,"2019-08-13 17:14:11",39.07606,-78.376709
1565716457,"2019-08-13 17:14:17",39.07684,-78.377945
1565716463,"2019-08-13 17:14:23",39.077566,-78.379124
1565716468,"2019-08-13 17:14:28",39.078242,-78.380029
1565716473,"2019-08-13 17:14:33",39.078947,-78.3809
1565716479,"2019-08-13 17:14:39",39.079864,-78.381914
1565716484,"2019-08-13 17:14:44",39.08061,-78.382739
1565716490,"2019-08-13 17:14:50",39.081497,-78.383783
1565716496,"2019-08-13 17:14:56",39.081986,-78.385106
1565716501,"2019-08-13 17:15:01",39.082022,-78.386316
1565716507,"2019-08-13 17:15:07",39.081713,-78.387563
1565716513,"2019-08-13 17:15:13",39.081097,-78.388791
1565716519,"2019-08-13 17:15:19",39.080401,-78.390133
1565716525,"2019-08-13 17:15:25",39.079624,-78.39161
1565716531,"2019-08-13 17:15:31",39.078814,-78.393237
1565716536,"2019-08-13 17:15:36",39.078102,-78.394627
1565716542,"2019-08-13 17:15:42",39.077289,-78.396268
1565716548,"2019-08-13 17:15:48",39.076423,-78.397958
1565716553,"2019-08-13 17:15:53",39.075686,-78.399417
1565716559,"2019-08-13 17:15:59",39.075037,-78.40111
1565716565,"2019-08-13 17:16:05",39.074625,-78.403006
1565716570,"2019-08-13 17:16:10",39.074221,-78.40454
1565716576,"2019-08-13 17:16:16",39.073715,-78.406336
1565716581,"2019-08-13 17:16:21",39.073339,-78.407737
1565716587,"2019-08-13 17:16:27",39.073375,-78.409143
1565716593,"2019-08-13 17:16:33",39.074221,-78.410459
1565716598,"2019-08-13 17:16:38",39.075006,-78.411406
1565716604,"2019-08-13 17:16:44",39.075981,-78.412405
1565716610,"2019-08-13 17:16:50",39.076115,-78.414018
1565716616,"2019-08-13 17:16:56",39.075807,-78.41572
1565716622,"2019-08-13 17:17:02",39.075791,-78.417412
1565716627,"2019-08-13 17:17:07",39.076567,-78.418535
1565716633,"2019-08-13 17:17:13",39.077718,-78.419529
1565716639,"2019-08-13 17:17:19",39.078747,-78.420845
1565716644,"2019-08-13 17:17:24",39.079529,-78.421948
1565716649,"2019-08-13 17:17:29",39.080296,-78.423068
1565716655,"2019-08-13 17:17:35",39.081201,-78.424403
1565716661,"2019-08-13 17:17:41",39.082105,-78.425735
1565716666,"2019-08-13 17:17:46",39.082878,-78.426859
1565716671,"2019-08-13 17:17:51",39.083655,-78.427989
1565716677,"2019-08-13 17:17:57",39.084575,-78.429303
1565716682,"2019-08-13 17:18:02",39.085272,-78.430296
1565716688,"2019-08-13 17:18:08",39.086114,-78.43148
1565716693,"2019-08-13 17:18:13",39.086836,-78.432538
1565716698,"2019-08-13 17:18:18",39.087573,-78.433618
1565716704,"2019-08-13 17:18:24",39.088451,-78.434841
1565716709,"2019-08-13 17:18:29",39.089149,-78.435913
1565716714,"2019-08-13 17:18:34",39.089877,-78.436934
1565716720,"2019-08-13 17:18:40",39.090954,-78.437747
1565716725,"2019-08-13 17:18:45",39.091895,-78.438298
1565716731,"2019-08-13 17:18:51",39.092703,-78.439292
1565716736,"2019-08-13 17:18:56",39.09317,-78.440327
1565716742,"2019-08-13 17:19:02",39.093573,-78.441704
1565716748,"2019-08-13 17:19:08",39.094018,-78.443149
1565716753,"2019-08-13 17:19:13",39.094523,-78.444322
1565716759,"2019-08-13 17:19:19",39.095278,-78.445555
1565716765,"2019-08-13 17:19:25",39.096084,-78.446657
1565716770,"2019-08-13 17:19:30",39.096767,-78.447528
1565716775,"2019-08-13 17:19:35",39.097511,-78.448485
1565716781,"2019-08-13 17:19:41",39.098424,-78.449721
1565716787,"2019-08-13 17:19:47",39.09914,-78.451313
1565716793,"2019-08-13 17:19:53",39.099457,-78.452978
1565716798,"2019-08-13 17:19:58",39.099543,-78.454383
1565716803,"2019-08-13 17:20:03",39.099396,-78.45577
1565716809,"2019-08-13 17:20:09",39.099074,-78.457315
1565716815,"2019-08-13 17:20:15",39.098984,-78.458874
1565716820,"2019-08-13 17:20:20",39.099186,-78.460219
1565716825,"2019-08-13 17:20:25",39.099084,-78.461548
1565716831,"2019-08-13 17:20:31",39.098459,-78.463201
1565716837,"2019-08-13 17:20:37",39.097895,-78.464873
1565716843,"2019-08-13 17:20:43",39.097366,-78.466446
1565716848,"2019-08-13 17:20:48",39.096944,-78.467662
1565716854,"2019-08-13 17:20:54",39.096882,-78.469184
1565716859,"2019-08-13 17:20:59",39.097374,-78.470379
1565716864,"2019-08-13 17:21:04",39.098158,-78.471259
1565716870,"2019-08-13 17:21:10",39.09901,-78.472419
1565716875,"2019-08-13 17:21:15",39.099528,-78.473742
1565716880,"2019-08-13 17:21:20",39.099969,-78.475061
1565716886,"2019-08-13 17:21:26",39.100174,-78.476814
1565716892,"2019-08-13 17:21:32",39.099898,-78.478647
1565716898,"2019-08-13 17:21:38",39.099215,-78.480177
1565716904,"2019-08-13 17:21:44",39.098552,-78.48153
1565716910,"2019-08-13 17:21:50",39.097945,-78.482933
1565716915,"2019-08-13 17:21:55",39.097406,-78.484132
1565716921,"2019-08-13 17:22:01",39.096712,-78.485574
1565716927,"2019-08-13 17:22:07",39.096061,-78.487063
1565716933,"2019-08-13 17:22:13",39.095332,-78.488476
1565716939,"2019-08-13 17:22:19",39.09463,-78.490102
1565716944,"2019-08-13 17:22:24",39.094084,-78.491398
1565716950,"2019-08-13 17:22:30",39.093396,-78.492885
1565716955,"2019-08-13 17:22:35",39.092854,-78.494087
1565716961,"2019-08-13 17:22:41",39.092194,-78.495539
1565716966,"2019-08-13 17:22:46",39.091645,-78.496724
1565716971,"2019-08-13 17:22:51",39.091113,-78.49798
1565716976,"2019-08-13 17:22:56",39.090681,-78.499405
1565716982,"2019-08-13 17:23:02",39.090096,-78.500924
1565716987,"2019-08-13 17:23:07",39.089293,-78.501851
